{"direction":[{"direction_id":"0","direction_name":"Outbound","stop":[{"stop_order":"1","stop_id":"North Station","stop_name":"North Station","parent_station":"place-north","parent_station_name":"North Station","stop_lat":"42.365551","stop_lon":"-71.061251"},{"stop_order":"2","stop_id":"Chelsea","stop_name":"Chelsea","parent_station":"","parent_station_name":"","stop_lat":"42.395689","stop_lon":"-71.034281"},{"stop_order":"3","stop_id":"River Works / GE Employees Only","stop_name":"River Works/GE Employees Only","parent_station":"","parent_station_name":"","stop_lat":"42.449927","stop_lon":"-70.969848"},{"stop_order":"4","stop_id":"Lynn","stop_name":"Lynn","parent_station":"","parent_station_name":"","stop_lat":"42.462953","stop_lon":"-70.945421"},{"stop_order":"5","stop_id":"Swampscott","stop_name":"Swampscott","parent_station":"","parent_station_name":"","stop_lat":"42.473743","stop_lon":"-70.922537"},{"stop_order":"6","stop_id":"Salem","stop_name":"Salem","parent_station":"","parent_station_name":"","stop_lat":"42.524792","stop_lon":"-70.895876"},{"stop_order":"7","stop_id":"Beverly","stop_name":"Beverly","parent_station":"","parent_station_name":"","stop_lat":"42.547276","stop_lon":"-70.885432"},{"stop_order":"8","stop_id":"North Beverly","stop_name":"North Beverly","parent_station":"","parent_station_name":"","stop_lat":"42.583779","stop_lon":"-70.883851"},{"stop_order":"8","stop_id":"Montserrat","stop_name":"Montserrat","parent_station":"","parent_station_name":"","stop_lat":"42.562171","stop_lon":"-70.869254"},{"stop_order":"9","stop_id":"Prides Crossing","stop_name":"Prides Crossing","parent_station":"","parent_station_name":"","stop_lat":"42.559446","stop_lon":"-70.825541"},{"stop_order":"9","stop_id":"Hamilton/ Wenham","stop_name":"Hamilton/Wenham","parent_station":"","parent_station_name":"","stop_lat":"42.609212","stop_lon":"-70.874801"},{"stop_order":"10","stop_id":"Ipswich","stop_name":"Ipswich","parent_station":"","parent_station_name":"","stop_lat":"42.676921","stop_lon":"-70.840589"},{"stop_order":"10","stop_id":"Beverly Farms","stop_name":"Beverly Farms","parent_station":"","parent_station_name":"","stop_lat":"42.561651","stop_lon":"-70.811405"},{"stop_order":"11","stop_id":"Manchester","stop_name":"Manchester","parent_station":"","parent_station_name":"","stop_lat":"42.573687","stop_lon":"-70.77009"},{"stop_order":"11","stop_id":"Rowley","stop_name":"Rowley","parent_station":"","parent_station_name":"","stop_lat":"42.726845","stop_lon":"-70.859034"},{"stop_order":"12","stop_id":"Newburyport","stop_name":"Newburyport","parent_station":"","parent_station_name":"","stop_lat":"42.797837","stop_lon":"-70.87797"},{"stop_order":"12","stop_id":"West Gloucester","stop_name":"West Gloucester","parent_station":"","parent_station_name":"","stop_lat":"42.611933","stop_lon":"-70.705417"},{"stop_order":"13","stop_id":"Gloucester","stop_name":"Gloucester","parent_station":"","parent_station_name":"","stop_lat":"42.616799","stop_lon":"-70.668345"},{"stop_order":"14","stop_id":"Rockport","stop_name":"Rockport","parent_station":"","parent_station_name":"","stop_lat":"42.655491","stop_lon":"-70.627055"}]},{"direction_id":"1","direction_name":"Inbound","stop":[{"stop_order":"1","stop_id":"Newburyport","stop_name":"Newburyport","parent_station":"","parent_station_name":"","stop_lat":"42.797837","stop_lon":"-70.87797"},{"stop_order":"1","stop_id":"Rockport","stop_name":"Rockport","parent_station":"","parent_station_name":"","stop_lat":"42.655491","stop_lon":"-70.627055"},{"stop_order":"2","stop_id":"Rowley","stop_name":"Rowley","parent_station":"","parent_station_name":"","stop_lat":"42.726845","stop_lon":"-70.859034"},{"stop_order":"2","stop_id":"Gloucester","stop_name":"Gloucester","parent_station":"","parent_station_name":"","stop_lat":"42.616799","stop_lon":"-70.668345"},{"stop_order":"3","stop_id":"Ipswich","stop_name":"Ipswich","parent_station":"","parent_station_name":"","stop_lat":"42.676921","stop_lon":"-70.840589"},{"stop_order":"3","stop_id":"West Gloucester","stop_name":"West Gloucester","parent_station":"","parent_station_name":"","stop_lat":"42.611933","stop_lon":"-70.705417"},{"stop_order":"4","stop_id":"Hamilton/ Wenham","stop_name":"Hamilton/Wenham","parent_station":"","parent_station_name":"","stop_lat":"42.609212","stop_lon":"-70.874801"},{"stop_order":"4","stop_id":"Manchester","stop_name":"Manchester","parent_station":"","parent_station_name":"","stop_lat":"42.573687","stop_lon":"-70.77009"},{"stop_order":"5","stop_id":"North Beverly","stop_name":"North Beverly","parent_station":"","parent_station_name":"","stop_lat":"42.583779","stop_lon":"-70.883851"},{"stop_order":"5","stop_id":"Beverly Farms","stop_name":"Beverly Farms","parent_station":"","parent_station_name":"","stop_lat":"42.561651","stop_lon":"-70.811405"},{"stop_order":"6","stop_id":"Prides Crossing","stop_name":"Prides Crossing","parent_station":"","parent_station_name":"","stop_lat":"42.559446","stop_lon":"-70.825541"},{"stop_order":"7","stop_id":"Montserrat","stop_name":"Montserrat","parent_station":"","parent_station_name":"","stop_lat":"42.562171","stop_lon":"-70.869254"},{"stop_order":"8","stop_id":"Beverly","stop_name":"Beverly","parent_station":"","parent_station_name":"","stop_lat":"42.547276","stop_lon":"-70.885432"},{"stop_order":"9","stop_id":"Salem","stop_name":"Salem","parent_station":"","parent_station_name":"","stop_lat":"42.524792","stop_lon":"-70.895876"},{"stop_order":"10","stop_id":"Swampscott","stop_name":"Swampscott","parent_station":"","parent_station_name":"","stop_lat":"42.473743","stop_lon":"-70.922537"},{"stop_order":"11","stop_id":"Lynn","stop_name":"Lynn","parent_station":"","parent_station_name":"","stop_lat":"42.462953","stop_lon":"-70.945421"},{"stop_order":"12","stop_id":"River Works / GE Employees Only","stop_name":"River Works/GE Employees Only","parent_station":"","parent_station_name":"","stop_lat":"42.449927","stop_lon":"-70.969848"},{"stop_order":"13","stop_id":"Chelsea","stop_name":"Chelsea","parent_station":"","parent_station_name":"","stop_lat":"42.395689","stop_lon":"-71.034281"},{"stop_order":"14","stop_id":"North Station","stop_name":"North Station","parent_station":"place-north","parent_station_name":"North Station","stop_lat":"42.365551","stop_lon":"-71.061251"}]}]}
