{"direction":[{"direction_id":"0","direction_name":"Outbound","stop":[{"stop_order":"1","stop_id":"South Station","stop_name":"South Station","parent_station":"place-sstat","parent_station_name":"South Station","stop_lat":"42.35176309","stop_lon":"-71.05479665"},{"stop_order":"2","stop_id":"Back Bay","stop_name":"Back Bay","parent_station":"place-bbsta","parent_station_name":"Back Bay","stop_lat":"42.347487","stop_lon":"-71.075399"},{"stop_order":"3","stop_id":"Yawkey","stop_name":"Yawkey","parent_station":"","parent_station_name":"","stop_lat":"42.347581","stop_lon":"-71.099974"},{"stop_order":"4","stop_id":"Newtonville","stop_name":"Newtonville","parent_station":"","parent_station_name":"","stop_lat":"42.351603","stop_lon":"-71.207338"},{"stop_order":"5","stop_id":"West Newton","stop_name":"West Newton","parent_station":"","parent_station_name":"","stop_lat":"42.347878","stop_lon":"-71.230528"},{"stop_order":"6","stop_id":"Auburndale","stop_name":"Auburndale","parent_station":"","parent_station_name":"","stop_lat":"42.345725","stop_lon":"-71.250826"},{"stop_order":"7","stop_id":"Wellesley Farms","stop_name":"Wellesley Farms","parent_station":"","parent_station_name":"","stop_lat":"42.323608","stop_lon":"-71.272288"},{"stop_order":"8","stop_id":"Wellesley Hills","stop_name":"Wellesley Hills","parent_station":"","parent_station_name":"","stop_lat":"42.31037","stop_lon":"-71.277044"},{"stop_order":"9","stop_id":"Wellesley Square","stop_name":"Wellesley Square","parent_station":"","parent_station_name":"","stop_lat":"42.297526","stop_lon":"-71.294173"},{"stop_order":"10","stop_id":"Natick Center","stop_name":"Natick Center","parent_station":"","parent_station_name":"","stop_lat":"42.285719","stop_lon":"-71.347133"},{"stop_order":"11","stop_id":"West Natick","stop_name":"West Natick","parent_station":"","parent_station_name":"","stop_lat":"42.283064","stop_lon":"-71.391797"},{"stop_order":"12","stop_id":"Framingham","stop_name":"Framingham","parent_station":"","parent_station_name":"","stop_lat":"42.276719","stop_lon":"-71.416792"},{"stop_order":"13","stop_id":"Ashland","stop_name":"Ashland","parent_station":"","parent_station_name":"","stop_lat":"42.26149","stop_lon":"-71.482161"},{"stop_order":"14","stop_id":"Southborough","stop_name":"Southborough","parent_station":"","parent_station_name":"","stop_lat":"42.267024","stop_lon":"-71.524371"},{"stop_order":"15","stop_id":"Westborough","stop_name":"Westborough","parent_station":"","parent_station_name":"","stop_lat":"42.269644","stop_lon":"-71.647076"},{"stop_order":"16","stop_id":"Grafton","stop_name":"Grafton","parent_station":"","parent_station_name":"","stop_lat":"42.2466","stop_lon":"-71.685325"},{"stop_order":"17","stop_id":"Worcester","stop_name":"Worcester","parent_station":"","parent_station_name":"","stop_lat":"42.261461","stop_lon":"-71.794888"}]},{"direction_id":"1","direction_name":"Inbound","stop":[{"stop_order":"1","stop_id":"Worcester","stop_name":"Worcester","parent_station":"","parent_station_name":"","stop_lat":"42.261461","stop_lon":"-71.794888"},{"stop_order":"2","stop_id":"Grafton","stop_name":"Grafton","parent_station":"","parent_station_name":"","stop_lat":"42.2466","stop_lon":"-71.685325"},{"stop_order":"3","stop_id":"Westborough","stop_name":"Westborough","parent_station":"","parent_station_name":"","stop_lat":"42.269644","stop_lon":"-71.647076"},{"stop_order":"4","stop_id":"Southborough","stop_name":"Southborough","parent_station":"","parent_station_name":"","stop_lat":"42.267024","stop_lon":"-71.524371"},{"stop_order":"5","stop_id":"Ashland","stop_name":"Ashland","parent_station":"","parent_station_name":"","stop_lat":"42.26149","stop_lon":"-71.482161"},{"stop_order":"6","stop_id":"Framingham","stop_name":"Framingham","parent_station":"","parent_station_name":"","stop_lat":"42.276719","stop_lon":"-71.416792"},{"stop_order":"7","stop_id":"West Natick","stop_name":"West Natick","parent_station":"","parent_station_name":"","stop_lat":"42.283064","stop_lon":"-71.391797"},{"stop_order":"8","stop_id":"Natick Center","stop_name":"Natick Center","parent_station":"","parent_station_name":"","stop_lat":"42.285719","stop_lon":"-71.347133"},{"stop_order":"9","stop_id":"Wellesley Square","stop_name":"Wellesley Square","parent_station":"","parent_station_name":"","stop_lat":"42.297526","stop_lon":"-71.294173"},{"stop_order":"10","stop_id":"Wellesley Hills","stop_name":"Wellesley Hills","parent_station":"","parent_station_name":"","stop_lat":"42.31037","stop_lon":"-71.277044"},{"stop_order":"11","stop_id":"Wellesley Farms","stop_name":"Wellesley Farms","parent_station":"","parent_station_name":"","stop_lat":"42.323608","stop_lon":"-71.272288"},{"stop_order":"12","stop_id":"Auburndale","stop_name":"Auburndale","parent_station":"","parent_station_name":"","stop_lat":"42.345725","stop_lon":"-71.250826"},{"stop_order":"13","stop_id":"West Newton","stop_name":"West Newton","parent_station":"","parent_station_name":"","stop_lat":"42.347878","stop_lon":"-71.230528"},{"stop_order":"14","stop_id":"Newtonville","stop_name":"Newtonville","parent_station":"","parent_station_name":"","stop_lat":"42.351603","stop_lon":"-71.207338"},{"stop_order":"15","stop_id":"Yawkey","stop_name":"Yawkey","parent_station":"","parent_station_name":"","stop_lat":"42.347581","stop_lon":"-71.099974"},{"stop_order":"16","stop_id":"Back Bay","stop_name":"Back Bay","parent_station":"place-bbsta","parent_station_name":"Back Bay","stop_lat":"42.347487","stop_lon":"-71.075399"},{"stop_order":"17","stop_id":"South Station","stop_name":"South Station","parent_station":"place-sstat","parent_station_name":"South Station","stop_lat":"42.35176309","stop_lon":"-71.05479665"}]}]}
